codi;nom;adreca;latitud;longitud
25482;Rambla Nova, 106;Rambla Nova, 106;41.117565;1.248163
25484;Rambla Nova, 68;Rambla Nova, 68;41.11592;1.251895
25486;Rambla Nova, 127;Rambla Nova, 127;41.119161;1.246214
25487;Rambla Nova, 91;Rambla Nova, 91;41.116853;1.251047
25109;Mas dels Cups;Mas dels cups, 14;41.155156;1.244094
25203;Colom;Colom, 7;41.116683;1.248404
25139;Part Alta;Av. Pallaresos, 109;41.1663866667;1.246916667
25034;Comellar;Mas dels Cups, 2-4;41.1528780117;1.2419462353
25211;L'Escorpí;Joanot Martorell s/n;41.1432966667;1.31822
25451;Isaac Albéniz;Isaac Albeniz, 55;41.1397033333;1.3012683333
25055;Entrepins;Roca Bruna, estació EMATSA;41.1396183333;1.3110616667
25199;Veneçuela;Bloc Méxic;41.1393876802;1.2490877509
25056;Equador;Bloc Períº;41.1392716667;1.2505833333
25179;St. Bartomeu;Bloc St. Simon, esc C;41.1390725592;1.2522380054
25628;St. Bartomeu;Bloc St. Maties;41.1390538741;1.2521971017
26610;Cantallops;Cantallops, Urb. Entrepins;41.1385783333;1.3130516667
25634;St. Pere i St. Pau;Ctra. Pont d'Armentera;41.1383896654;1.2559989095
25555;Guatemala;Bloc Guatemala;41.1383197218;1.2494149805
25183;St. Pere i St. Pau;Ctra. Pont d'Armentera;41.1382879062;1.2557903007
25088;La Plaça;Av. Boscos, 2;41.1380316667;1.295025
25073;Guatemala;Pl. Cuba ;41.1374762255;1.2512797862
25038;Coop. Tàrraco;Miquel Servet, 14-16;41.1371434197;1.258032918
25107;Mas de les Flors;Violant d'Hongria, 4;41.1369016667;1.2560966667
25117;Miramar;Av. Països Catalans, bloc Coll de Lilla;41.1365016652;1.2503510714
25048;El Catllar;Ctra. El Catllar, Km 6;41.1348133333;1.305465
25590;Països Catalans, 41;Països Catalans, 41;41.1344008774;1.2481555994
25126;Muller;Av. del Cel s/n;41.1342466667;1.3067116667
25447;Països Catalans, 41;Av. Països Catalans, 32;41.1341545302;1.2476840616
25155;Politecnic;Zona Educacional, Facultat de Ciéncies i Psicologia;41.1340512493;1.2410629615
25013;Bon Sol;Ctra. Llevantina, 3;41.1338861005;1.302189678
25142;Pedrol;Muntanyeta, 14;41.1337083333;1.2526983333
25099;Llevantina 2;Ctra. Llevantina, 19;41.1336716667;1.2988233333
25098;Llevantina 1;Ctra. Llevantina, 5;41.1331983333;1.2977033333
25212;Mestre Xavier Gols;Carrer de les Gavarres, 4;41.1327148957;1.2051267251
25128;Muntanyeta;Muntanyeta, 38;41.1324266667;1.2517166667
25011;Blauet;Passeig del Blauet s/n;41.1321275178;1.3561171442
25119;Monnars;Ctra. a El Catllar TP-2039;41.1320116667;1.3041616667
25455;Mercat del Camp;Av. La Florida, ctra. TP-3145;41.1312033333;1.1799133333
25472;P.P.9;Polígon P.P.9, Les Gavarres;41.1307800135;1.2063908726
25151;Platja Llarga;Ctra. N-340, accés a Platja Llarga;41.1303616667;1.3007966667
25080;Joan Serra;Av. Països Catalans, 8;41.1295015508;1.2425800413
25536;Conca de Barbera;Conca de Barbera, 46;41.1294694942;1.3496374525
25113;Mediterrani;Ctra. N-340 Km-1167;41.1286916667;1.2970766667
25196;Tramuntana;Av. de la Florida, front 22;41.1271566667;1.17891
25671;Centre Cormercial;Cami XXIII;41.1268791407;1.2051558494
25191;Tennis;Ctra. N-340 front accés tennis;41.1266216667;1.2923266667
25037;Concordia;Concórdia, Parc Infantil;41.1263433571;1.1838278174
25083;La Floresta;Entre els blocs LLorer i Gessamí.;41.1261266667;1.2128466667
25647;Tramuntana;Av. de la Florida, 6;41.1259847345;1.1787176952
25174;Sector Nord;Av. Sector Nord s/n;41.1258867443;1.1816900969
25672;La Floresta;Urbanització La Floresta 6;41.1256953095;1.2115341424
25018;Cala Romana;Ctra. N-340;41.1251583333;1.2882866667
25670;Carabia;Carabia 15;41.1251419636;1.2135520577
25061;Estadi;Camí de la Budellera, darrera ITV;41.1247172909;1.274722293
25108;Mas del Sevil;Mas del Sevil;41.1246219507;1.2194139361
25213;Pont i Gol, 5;Pont i Gol, 5;41.1244580409;1.2364241481
25003;Aqüeducte;Carrer Antoni Rovira i Virgili, 75;41.1243266667;1.2528783333
25023;Cap la Granja T-11;Lateral Ctra. N-420, T-11;41.1241766667;1.2138616667
25471;Doctor Mallafré, 7;Doctor Mallafre, 7;41.1239339816;1.239812538
25138;Parc Riuclar;Coubertain, 2;41.1238632648;1.2208777964
25669;L'Albada;carabia 9;41.1238328313;1.2169463933
25137;Parc Riuclar;Mas de les Garses, blocs Alena;41.1233631268;1.2186253667
25022;Cap la Granja;Mora d' Ebre, CAP;41.1231773083;1.2134849131
25523;Cap la Granja;Mora d' Ebre, CAP;41.1231171984;1.213423267
25172;Savinosa;Ctra. N-340, Benzinera Repsol;41.1230266667;1.28039
25000;4 Garrofers;Av. Catalunya, front 60;41.1229683333;1.2447233333
25072;Goya;Roig Bergadà, 4;41.1228666667;1.24101
25069;Francesc Macià;Francesc Macià, 10-A;41.1228372318;1.2371331453
25101;Llorenç de Vilallonga;Llorenç de Vilallonga, Parc;41.1225602949;1.2736784555
25544;Escoles Bonavista;Carrer vint-i-dos, 2;41.1225499397;1.1940845847
25545;Escoles Bonavista;Carrer Catorze, Col·legi Bonavista;41.1224583848;1.1942064017
25125;Mozart;Wolfang Amadeus Mozart, front edifici Mozart;41.1223891819;1.2642724067
25636;Sta. Tecla Llevant;Joan Fuster, front CAP Sta. Tecla;41.1222694656;1.2673462182
25565;La Canonja;Raval, 37;41.1222048087;1.1795628816
25527;Campus Catalunya;Av. Catalunya, 30;41.1221342795;1.2495801598
25170;Salvador Espriu;Salvador Espriu amb Merce de Roureda;41.1220133333;1.2748866667
25154;Polisportiu;Riu Siurana, polisportiu de Campclar;41.1219788876;1.2078894675
25512;Arrabassada;Via Augusta, front 151;41.1219574194;1.2761244178
25005;Arrabassada;Via Augusta, 151;41.1219283333;1.2761516667
25082;La Canonja;Marina, 36 Pl. Europa;41.1218233333;1.1787483333
25070;Gaià;Gaià, 8;41.1217129338;1.2190499157
25553;Gaià;Gaià, 9;41.1216436038;1.2188136578
25564;Josep Roqué;Josep Roque, 34-36;41.1215324735;1.221043244
25147;Pl. Generalitat;Francesc Macià, 1;41.1215299478;1.2405650318
25198;Vall de l'Arrabassada;Joan Fuster, 6-2;41.1213734811;1.269992888
25650;Vall de l'Arrabassada;Llorenç de Vilallonga, 4;41.1213526442;1.2707331777
25085;La Font;Carrer vint-i-dos, 62;41.1212451757;1.1934121773
25086;La Granja;Gran Canaria s/n;41.1212416397;1.2135653794
25566;La Granja;Gran Canaria, 27;41.1211608172;1.2134795487
25644;Topromi;Av. Carrasco i Formiguera, davant fundació;41.1211010843;1.1889425665
25192;Topromi;Av. Carrasco i Formiguera, fundació;41.1209866667;1.1887433333
25208;Cap Muralles;Escultor Verderol, front CAP;41.1209483333;1.25455
25032;Claret;Av. Marques de Montoliu, 6;41.1207516667;1.24677
25627;St. Benilde;St. Benilde, Camp de Futbol;41.1207268998;1.2159785628
25114;Mercadet;Carrer vint, 61;41.1207051786;1.1949596554
25180;St. Benilde;St. Benilde, 80;41.1206966667;1.216005
25207;Camp de Mart;Av. MÂª Cristina, Camp de Mart;41.1205133333;1.2554733333
25168;Riuclar;Riuclar, Bloc 5;41.1204364413;1.2247502804
25014;Bonavista;Carrer Deu, 40;41.1202933333;1.1920133333
25571;Lluís Companys;Lluís Companys, 12;41.1201737647;1.2426761091
25028;Catalunya;Av. Catalunya, 15-17;41.1201683333;1.2526966667
25019;Camí de la Cuixa;Wolfang Amadeus Mozart, 7;41.1200716667;1.2671016667
25150;Platja;Passeig Marítim Rafael de Casanova, platja Arrabassada. Direcció Llevant.;41.1199966667;1.2763033333
25654;Vidal i Barraquer;Vidal i Barraquer , front 9;41.1199448058;1.2399112433
25197;Tuset;Via Augusta s/n;41.1199325559;1.2713596858
25528;C.I. Formiguera;Av. Carrasco i Formiguera, 9;41.1198468066;1.1849018186
25090;La Salle;St. Benilde, front 15;41.1198133333;1.21321
25102;Lluís Companys;Lluís Companys, sub-delegació del govern;41.1197616667;1.2443483333
25569;La Salle;St. Benilde, 15;41.1197166038;1.2129986286
25546;Escultor Martorell;Masricard, 47;41.1196492923;1.1823812127
25089;Platja;Passeig Marítim Rafael de Casanova, platja Arrabassada. Direcció centre.;41.1195481354;1.2750680745
25201;Vidal i Barraquer;Vidal i Barraquer, 9;41.1194166667;1.2396566667
25041;Diputació;Camí de la Cuixa, 20-22;41.1192458005;1.2630620599
25054;Enric d'Ossó;Enric d'Ossó front Institut;41.1191133333;1.2419433333
25190;Tarradellas;Riu Besós Edif. Telefónica;41.1191016667;1.20926
25200;Via Augusta;Via Augusta, 83;41.1188833333;1.2687533333
25169;Rovira i Virgili;Rovira i Virgili, 12;41.1187253074;1.2504409393
25158;Portal del Roser;Via del Imperi Romà,;41.1187083333;1.25469
25535;Col·legi;Riu Clar, Bloc 16 direcció Tgna;41.1186936632;1.2250714749
25602;Pl. Imperial Tàrraco;Pl. Imperial Tàrraco, 2 . Catalunya Caixa;41.1186445364;1.245482862
25574;Marenostrum;Passeig Marítim Rafael de Casanova;41.1182415436;1.2730747461
25143;Pere Martell;Pere Martell, 1;41.1182092132;1.2449625135
25025;Carrer Vint;Explanada Mercat / Llar de Jubilats;41.1177516667;1.19452
25076;Imperi Romà;Via de l'Imperi Romà;41.1175878591;1.2532053217
25597;Pere Martell;Pere Martell, 7-5;41.1173645743;1.2446390167
25121;Montblanc;Montblanc, 18-20;41.1171666667;1.2183966667
25570;Llobregat;Riu Llobregat, parroquia Sta. TEcla;41.1170770057;1.206574738
25016;Brugent;Riu Llobregat, ;41.1170732169;1.2051714957
25205;Prat de la Riba;Prat de la Riba, 29;41.1170104492;1.2463349104
25123;Montsant;Riu Montsant, 3-5;41.1169933333;1.21108
25075;Icomar;Front Bloc C-1;41.1169216667;1.22545
25457;Dues Hortes;Marina, 98;41.1168498041;1.1816310883
25596;Pere Martell;Pere Martell, 9-11;41.1167689131;1.2444061786
25165;Ramon y Cajal;Ramon y Cajal, 21;41.1167487692;1.2478310019
25623;Ramon y Cajal;Ramon y Cajal, 5;41.1167225001;1.2477597669
25622;Ramon y Cajal;Ramon y Cajal, 19;41.1167093713;1.2476116698
25598;Pilats;Passeig de St. Antoni, front 16;41.1167051979;1.2590990961
25195;Tortosa;Tortosa, 9;41.1164816667;1.2194483333
25163;Rambla Nova;Rambla Nova, 91;41.1164733333;1.251125
25049;El Pilar;Riu Montsant 10, Bloc Cinca;41.1164183333;1.2132333333
25620;Rambla Vella;Rambla Vella, 25;41.1163859264;1.2551180273
25152;Poligon;Ctra. N-340, Edifici Renault;41.1163083333;1.2286583333
25021;Campclar;Riu Ter, s/n;41.1162534435;1.2015701831
25675;Ramon y Cajal, 40;Ramon y Cajal 40;41.1162153025;1.245984301
25464;Parc;Ramón y Cajal, Parc Central;41.1161703416;1.240105033
25129;Naranjos;Riu Monstant, front 4;41.1161466667;1.2145883333
25531;Carrer Vint, 10;Carrer Vint, 10;41.1159394743;1.1937394068
25047;Balcó;Via Augusta, 1-3;41.1157533333;1.2588983333
25159;Prat de la Riba, 11;Prat de la Riba, 11;41.1156474904;1.2469715439
25189;Tanatori;Polígon Francolí parc. 12A;41.1152566667;1.232785
25066;Fortí;Passeig Marítim Rafael de Casanova, 21;41.1151116667;1.26726
25116;Miracle Platja;Passeig Marítim Rafael de Casanova;41.1146866667;1.2622116667
25027;Casanova;Passeig Maritim Rafael de Casanova, 27;41.1142433333;1.2703466667
25012;Bombers;Autovia de Salou;41.1139283333;1.2176983333
25046;Eix Transversal;Polígon Francolí, parcela 4;41.1138183333;1.2242583333
25153;Polígon Francolí;Polígon Francolí, parc. 10;41.1137733333;1.2293516667
25161;Prim;Plaça Prim, 1;41.1134067006;1.2508837022
25105;Pere Martell, 51;Pere Martell, 51;41.1130122641;1.2431842089
25009;Bastos;Torres Jordi, 14;41.1122217422;1.2411427572
25194;Torres Jordi;Passeig de l'Independéncia, passatge Xavier;41.1118736518;1.2385773808
25167;Reial;Reial, 27;41.1115356639;1.2450500652
25560;Estació;Cr Comerç, 7-9;41.1113592806;1.2521899492
25599;Pl. Carros;Reial, 9;41.1106697199;1.2499192358
25157;Port Esportiu;Passeig Marítim Rafael de Casanova, Port Esportiu;41.1104416667;1.2527366667
25680;El Serrallo;Trafalgar, 58;41.1102135033;1.2433875203
25880;Marina Tarraco;Moll d'Aragó;41.1087695543;1.2495138869
25035;Complex Educatiu;Complex Educatiu, Laboral;41.1022183333;1.202325
25719;Mas Pastor;Cami Mas del Frare, 1;41.159329263;1.2697288692
25689;Rodolat del Moro;Travessia Comella Moro, 9;41.150067446;1.2689660559
25718;Rodolat del Moro-2;Travessia Comella Moro-9;41.150067446;1.2689660559
25651;Veneçuela;Bloc Veneçuela;41.139457244;1.2491981685
25578;Miramar;Av. Països Catalans, bloc La Mussara;41.136525275;1.2489911914
25563;Joan Serra;Av. Països Catalans, front 8;41.129662165;1.2428967543
25031;Centre Comercial;Vial de servei Les Gavarres / Centre Comercial;41.127089892;1.2053452469
25673;Cubertain;Cubertain, 36;41.126053176;1.2141604722
25631;Sector Nord;Av. Sector Nord s/n;41.125818934;1.1816295236
25091;L'Albada;Baró Pierre de Coubertin;41.125288698;1.2170714289
25008;Barri Nou;Camí dels Antigons s/n;41.124734591;1.1802014709
25074;Hospital Joan XXIII;Doctor Mallafre s/n;41.123388324;1.2378828228
25585;Mozzart;Wolfang Amadeus Mozart, edifici Mozart;41.122439695;1.2638197839
25004;Argentina;Avinguda de l'Argentina, 1A;41.121529569;1.2414894328
25081;Josep Roqué;Josep Roque, 5;41.121526033;1.2210441381
25639;Tarradellas;Riu Besós, 13;41.119089581;1.2092388421
25529;Carrer Vint;Explanada Mercat / Llar de Jubilats;41.117800282;1.1944153905
25104;Mallorca;Francesc Bastos, 16;41.114852821;1.2421573028
25185;St. Salvador;Av. Pallaresos, Bloc 11;41.16452667;1.244255
25135;Pallaresos;Av. Pallaresos, camp de tir;41.16358833;1.241521667
25007;Pallaresos;Av. Pallaresos, camp de tir;41.16355333;1.2415966667
25093;Les Botigues;Av. St. Salvador, col·legi;41.16042833;1.24112
25149;Planot;Carrer del Planot, 1. Edifici Telefónica;41.15967167;1.24146
25140;Part Baixa;Av. del Montsant, bloc 21-22;41.15888833;1.238918333
25575;Mas d'en Garrot;Mas d'en Garrot 62-64;41.15798667;1.246103333
25160;Prefabricats;Av. St. Salvador, cantonada parada gran;41.15597333;1.24124
25474;L'Alzina del Mas;Mas d'en Garrot, 64-32;41.15589667;1.24358
25186;Sta. Isabel;Passeig Sta. Isabel amb Av. del Montsant;41.15567667;1.238633333
25614;Prefabricats;Av. St. Salvador, 132;41.15530333;1.241098333
25173;Secà;Mas dels Cups amb Secà;41.15500667;1.244125
25092;L'Ebre;Passeig Sta. Isabel;41.15384167;1.239013333
25210;L' Ebre ;Passeig Sta. Isabel;41.15383167;1.239016667
25184;St. Ramon;Av. St. Salvador, 37;41.15365333;1.240688333
25156;Pont del Diable;Ctra. N-240, Pont del Diable;41.14674667;1.239676667
25707;Cigonya, 16;Cigonya, 16;41.14326721;1.29253169
25705;Oreneta, 14;Oreneta, 14;41.14073443;1.29349007
25202;Violant d'Hongria;Violant d'Hongria, 25;41.13928264;1.2582461536
25637;Tamarit;Ctra. N-340, Km 1172;41.13907333;1.352168333
25454;Castell de Tamarit;Passeig de l' Esquirol, acces al camping;41.13843167;1.35331
25532;Castell de Tamarit;Passeig de l' Esquirol, acces al camping;41.13840333;1.35244
25551;Europa;Front bloc Europa;41.13807333;1.252925
25655;Violant d'Hongria;Violant d'Hongria, 32;41.13793333;1.25672
25568;La Plaça;Alosa, 23;41.13773667;1.293895
25050;El Pont;Av Mediterrani, front 2-4;41.13771833;1.345891667
25715;Amadeus Vives, 4;Amadeus Vives, 4;41.13767221;1.29701875
25541;El Pont;Av. Mediterrani, 2-4;41.13763167;1.34604
25556;Guineu;Passeig de l'esquirol s/n, direccio Tgna;41.13728833;1.350891667
25629;St. Jordi;Front bloc St. Jordi;41.13658667;1.253466667
25584;Montsià;Av. Mediterrani, 24;41.13550167;1.346346667
25549;Esquirol;Passeig de l' Esquirol, front diposits EMATSA,direcc. Tgna;41.13543667;1.353706667
25124;Montsià;Av. Mediterrani, front 24;41.13542333;1.346245
25518;Bon Sol;Ctra. Llevantina, 4;41.13380167;1.302093333
25036;Compte de Rius;Marcel·li Domingo / Col·legi La Salle;41.13345167;1.244495
25589;Països Catalans;Av. Països Catalans, 29;41.13281833;1.246318333
25633;Solimar;Pl. Creu del Sud, 1;41.13246667;1.307856667
25516;Blauet;Passeig del Blauet s/n;41.13227833;1.356278333
25134;Països Catalans;Av. Països Catalans, URV;41.13221167;1.245633333
25588;Osona;Av. Mediterrani, 62;41.13197667;1.345206667
25111;Mas Rabassa;Ctra. N-340 Km-1168,5;41.13184333;1.311075
25177;Solimar;Ctra. N-340 Km-1168;41.13177167;1.306511667
25057;Escola d'art;Zona Educacional;41.13173167;1.24104
25132;Osona;Av. Mediterrani, front 62;41.13158333;1.345041667
25562;Joan Molas;Av. Països Catalans, 15;41.13073333;1.244195
25567;La Mora;C/ de la Baixa Garrotxa, 2;41.13047833;1.346391667
25700;Terra Ferma, 20;Terra Ferma, 20;41.13012603;1.29109605
25607;Platja Llarga;Ctra. N-340, accés a Ciutat Residencial;41.12999167;1.298603333
25699;Cota, 8;Cota, 8;41.12899395;1.29317836
25698;Cota, 5;Cota, 5;41.12891152;1.29344969
25643;Tennis;Ctra. N-340 accés tennis;41.12671333;1.292291667
25084;La Floresta T-11;Vial Circunvalació La Floresta;41.12670667;1.213365
25470;Escola Tarragona;Darrera Hosp. Joan XXIII;41.12664667;1.237516667
25524;Cala Romana;Ctra. N-340, Km. 1167;41.12546833;1.289053333
25510;Aqí¼educte;Rovira i Virgili, 68;41.12483167;1.253045
25514;Barri Nou;Camí dels Antigons, 1;41.12469833;1.180278333
25077;Institut;Riu Segre, Institut Campclar, direcció Campclar;41.12375333;1.211355
25554;Goya;Covadonga s/n;41.12350333;1.241331667
25560;Institut;Riu Segre, Intitut Campclar direccio Tgna;41.12336167;1.211216667
25507;4 Garrofers;Av. Catalunya 60;41.12307667;1.244611667
25509;Andorra;Av. Andorra, 10;41.12221833;1.244031667
25002;Andorra;Avinguda Principat d'Andorra, 13-15;41.12186167;1.244181667
25533;Catalunya;Rovira i Virgili, 40;41.12169333;1.251836667
25112;Masricard;Raval, 85;41.12089667;1.18096
25519;Bonavista;Carrer Quinze, 29;41.12055833;1.191636667
25625;Riuclar;Riuclar, front bloc 5;41.12046333;1.224781667
25006;Catalunya;Av. Catalunya, 22;41.12014667;1.252548333
25632;Segre;Riu Segre, 7 A;41.11977333;1.211425
25641;Tarradellas;Riu Siurana amb Riu Besós;41.11945333;1.208001667
25096;Les Neus;Marina, 50;41.11939167;1.179741667
25605;Pl. Imperial Tàrraco;Pl. Imperial Tàrraco, 1. Antiga facultat de lletres;41.11930333;1.245926667
25488;Carrer Vint, 56;Carrer Vint, 56;41.11927833;1.194388333
25133;Enric d'Ossó;Enric d'Ossó, Institut Martí Franqués;41.11921167;1.242486667
25652;Via Augusta;Via Augusta, 74;41.11883833;1.268558333
25613;Portal del Roser;Av. Catalunya, parc Saavedra;41.11866167;1.254531667
25645;Torreforta;Montblanc, 42;41.11865333;1.217471667
25178;St. Antoni;Passeig St. Antoni, portal de St. Antoni;41.11843333;1.260801667
25591;Parc;Av. de Roma, front 19;41.11815667;1.239411667
25136;Parc;Av. de Roma, 24-26;41.11793833;1.239435
25489;Carrer Vint, 30;Carrer Vint, 30;41.11765333;1.194033333
25515;Beneficéncia;Via Augusta, 83;41.11721333;1.26403
25521;Brugent;Riu Llobregat, centre cívic;41.11717333;1.204183333
25587;Nou Vial;Riu Llobregat, Camp de fíºtbol;41.11712833;1.200498333
25583;Montsant;Riu Montsant, 3-5;41.11708167;1.211056667
25100;Llobregat;Riu Llobregat, 3;41.11706333;1.20663
25576;Mercat;Riu Glorieta;41.11683333;1.216983333
25463;Mercat;Riu Glorieta;41.11672333;1.216695
25540;El Pilar;Riu Montsant, 10 Front Bloc Cinca;41.11653167;1.213128333
25577;Miracle;Via Augusta, 34;41.11648167;1.261451667
25520;Brugent;Riu Brugent, s/n;41.11647833;1.204796667
25608;Polígon;Ctra. N-340, Gasolinera Triton;41.11630167;1.228245
25586;Naranjos;Riu Montsant, 4;41.11625167;1.214446667
25490;Carrer Vint, 10;Carrer Vint, front 10;41.11585167;1.1938
25473;Campsrodons;Campsrodons, nau 6;41.11577333;1.183731667
25513;Balcó;Via Augusta, 2;41.11562667;1.258176667
25648;Turia;Ctra. de Valencia, 211;41.11537333;1.217255
25638;Tanatori;Polígon Francolí parc. 13;41.11490333;1.232858333
25517;Bombers;Polígon Francolí;41.11363167;1.219121667
25609;Poligon Francoli;Polígon Francolí, parc 26;41.11363167;1.229688333
25595;Passeig Marítim;Passeig Marítim Rafael de Casanova;41.11350167;1.258005
25994;Passeig Marítim;Passeig Marítim Rafael de Casanova;41.11347167;1.257888333
25068;Bastos;Torres Jordi, front 14;41.11226667;1.240876667
25646;Torres Jordi;Passeig de l'independéncia front passatge Xavier;41.11174333;1.238466667
25078;Jaume I;Reial, 2;41.11170667;1.24353
25130;El Serrallo;Pere Martell, antic Nàutic;41.11008333;1.243276667
25612;Port Esportiu-Miracle;Passeig Marítim Rafael de Casanova,;41.10922167;1.251428333
25542;Posit;Trafalgar, Pl. Bisbe Bonet;41.10905833;1.23937
25592;Parc;Ramon y Cajal, 76;41.1160395;1.2413012982
25071;Gaudí;Arquitecte Gaudí, front tennis;41.162505;1.244525
25606;Planot;Franquese de Codony, amb Av. St. Salvador;41.159705;1.241476667
25572;L'Olivera;Av. St. Salvador, 116;41.157869;1.24109
25176;Siurana;Passeig Sta. Isabel, 52;41.157565;1.237995
25097;Les Vinyes;Mas dels Cups amb Les Vinyes;41.156427;1.24609
25635;St. Ramon;Av. St. Salvador, front 39;41.154734;1.240893
25720;Tarragones, 5;C. del Tarragones, 5;41.148126;1.277902
25704;Cigonya, 40;Cigonya, 40;41.145691;1.292406
25064;Ferran;Ctra. La Riera de Gaià ;41.145455;1.359453333
25879;Urb. Balcó de Tarragona;Pairal, 6;41.145198;1.276453
25706;Oreneta, 13;Oreneta, 13;41.140467;1.293575
25503;Aiguamolls del Gaià;Ctra N-340, front Bufet Altafulla;41.140282;1.367106
25452;Antoni Nicolau;Isaac Albeniz, 19;41.139565;1.2971083333
25543;Equador;Bloc Bolívia;41.139315;1.250818333
25188;Tamarit;Ctra. N-340, Km 1172;41.139025;1.353665
25548;Església;Bloc St. Joan Esc A-B;41.138715;1.254205
25058;Església;Església St. Pere i St. Pau;41.138495;1.2544833333
25690;Miramar III;Bloc Alt Penedes s/n;41.137563;1.250365
25446;Guineu;Passeig de l'Esquirol s/n, direccio ferran;41.137215;1.35117
25818;Estacio Altafulla Tamarit;TV-2023, 91;41.136956;1.37466
25717;Jaume Pahissa, 31;Jaume Pahissa, 31;41.135192;1.301068
25065;Florimar;ctra. Llevantina, 17;41.134685;1.3011083333
25145;Pinars;Av. de Boscos, 43-45;41.134635;1.2974383333
25819;Campings de Tamarit;Tamarit, 29;41.134149;1.35815
25580;Monnars;Ctra. a EL Catllar TP-2039;41.131995;1.304061667
25095;Amades i Gelats;Centre Comercial Les Gavarres (Mc Donald's);41.131255;1.204811667
25094;Gavarres Nord;Centre Comercial Les Gavarres;41.130939;1.201581
25079;Joan Molas;Av. Països Catalans, 20;41.130695;1.243895
25679;Frederic Escofet Alsina;Pl. Frederic Escofet Alsina;41.129589;1.200133
25823;Mediterrani;Mirador, 5;41.128532;1.296523
25701;Terra Ferma, 7;Terra Ferma, 7;41.127441;1.290839
25708;Sol, 9;Sol, 9;41.127127;1.291203
25709;Sol, 4;Sol, 4;41.125731;1.289218
25674;Pont i Gol 41;Pont i Gol 41;41.125707;1.235891
25822;Doctor Mallafre, 12;Doctor Mallafre, 12;41.124581;1.242153
25821;Doctor Mallafre, 11;Doctor Mallafre, 11;41.124499;1.242177
25526;Camí de Reus;Av. de la Florida, front 15;41.124195;1.178386667
25020;Camí de Reus;Av. de la Florida, front 2;41.123975;1.1782866667
25630;Savinosa;Ctra. N-340, amb camí de la Budellera;41.123475;1.281161667
25668;Mas del Sevil;Carabia, 3;41.123463;1.218442
25552;Francesc Macià;Francesc Macià, 13-17;41.122998;1.237536
25511;Argentina;Repíºblica Argentina, 9;41.122471;1.242702
25582;Montoliu;Av. Marques de Montoliu, 11;41.122455;1.248153333
25187;Sta. Tecla Llevant;Joan Fuster, CAP Sta Tecla;41.122185;1.26749
25667;Pg. Torroja, 1;Pg. Torroja, 1;41.121627;1.257802
25688;Illes Balears, 7;Illes Balears, 7;41.121602;1.215013
25687;Tenerife;Tenerife, 1;41.121404;1.21666
25508;Escola els í€ngels;Riu Segre, front 10;41.121325;1.211458333
25600;Pl. Generalitat;Francesc Macià, 2-A;41.121269;1.240473
25697;Tarradellas, 4;Tarradellas, 4;41.121239;1.195364
25666;Pg. Torroja, 52;Pg. Torroja, 52;41.121058;1.261458
25703;Joan Fuster, 3;Joan Fuster, 3;41.120879;1.271051
25534;Claret;Av. Marques de Montoliu, 5;41.120748;1.246784
25525;Camí de la Cuixa;Wolfang Amadeus Mozart, 30-32;41.120175;1.266966667
25017;C.I. Formiguera;Av. Carrasco i Formiguera, 8;41.120025;1.1854966667
25042;Escultor Martorell;Carrasco i Formiguera, 4-6;41.119549;1.183965
25640;Tarradellas;Riu Siurana amb av. Tarradellas;41.119475;1.207863333
25469;Bonavista;Carrer Vint-i-dos, Pl. Constitució;41.119068;1.192312
25601;Pl. Imperial Tàrraco;Lateral Via Roma, edifici Tràfic;41.118955;1.244213333
25039;Creu Roja;Av. Maria Cristina, 25;41.118835;1.252681667
25175;Segre;Riu Segre, 8;41.118835;1.211455
25033;Col·legi;Riu Clar, Bloc 16 direcció barris;41.118795;1.225055
25653;Via Roma, 2;Via Roma, 2;41.118751;1.244282
25193;Torreforta;Tortosa, 31;41.118575;1.2183466667
25106;Marenostrum;Passeig Marítim Rafael de Casanova;41.117903;1.273145
25530;Carrer Vint;Carrer Vint, front 30;41.117785;1.194105
25062;Estanislau Figueres;Estanislau Figueres, 7;41.117781;1.251612
25026;Carrer Vint-i-tres;Carrer Vint-i-tres, 4;41.117555;1.19012
25557;Icomar;Horta Gran, Bloc E-2;41.117535;1.225716667
25453;Rambla Nova, 105;Rambla Nova, 105;41.117529;1.248944
25141;Pau Casals;Pau Casals, front 13;41.117402;1.250151
25010;Beneficencia;Via Augusta, front 83;41.117193;1.264038
25458;Pau Vidal;Av. de la Pineda, Pl. Pau Vidal;41.116935;1.184249
25621;Ramon y Cajal;Ramon y Cajal, 11;41.116876;1.248134
25181;St. Francesc;St. Francesc, front 4;41.116842;1.253517
25483;Rambla Nova;Rambla Nova, 90;41.116751;1.249922
25144;Pilats;Passeig de St. Antoni, 17;41.116485;1.258776667
25695;Colom, 7;Colom, 7;41.116344;1.248506
25115;Miracle;Via Augusta, 41;41.116335;1.2610433333
25693;Colom, 14;Colom, 14;41.115909;1.24822
25682;Necrópolis;Vidal i Barraquer, 21;41.115895;1.240215
25164;Rambla Vella;Rambla Vella, 6-8;41.115877;1.256145
25684;Rambla Nova, 64;Rambla Nova, 64;41.115718;1.252028
25491;Turia;Ctra. Valencia front 206;41.115325;1.218226667
25664;Ctra. Valencia, 224;Ctra. Valéncia, 224;41.115221;1.204518
25539;Fortí;Passeig Marítim Rafael de Casanova, 22;41.115165;1.266848333
25875;Ctra. Valencia, 232;Ctra. Valencia, 232;41.115029;1.200763
25876;Ctra. Valencia, 216;Ctra. Valencia, 216;41.115013;1.209119
25665;Ctra. Valencia, 222;Ctra. Valéncia, 222;41.114909;1.205393
25573;Pere Martell, 33;Pere Martell, 33;41.114875;1.243756667
25678;Pere Martell, 34;Pere Martell, 34;41.114821;1.243775
25616;Casanova;Passeig Marítim Rafael de Casanova, 34;41.114465;1.270133333
25067;Fórum;Gasometre, 27;41.113988;1.249035
25615;Prim;Unió, 37-39;41.113974;1.251191
25683;Vidal i Barraquer, 25;Vidal i Barraquer, 25;41.113237;1.241433
25677;Pere Martell, 54;Pere Martell, 54;41.112576;1.243054
25676;Apodaca, 11;Apodaca, 11;41.111992;1.250512
25561;Jaume I;Reial front 2;41.111795;1.243345
25624;Reial;Reial, 32;41.111325;1.246106
25146;Pl. Carros;Pl. dels Carros;41.110555;1.250432
25051;Posit;Trafalgar, front plaça Bisbe Bonet;41.109025;1.239075
25030;Centre A;Interior Complex Educatiu;41.102725;1.2007633333
25053;Els Pins;Av. dels Pins, Residéncia Disminuits.;41.16422;1.2465816667
25015;Les Botigues;Av. St. Salvador, 76-78;41.16056;1.241046667
25103;L'Olivera;Av. St. Salvador, front 116;41.15805;1.241125
25110;Mas d'en Garrot;De les Vinyes amb Mas d'en Garrot;41.15778;1.24414
25659;El Pinatell;Ctra El Catllar;41.14115;1.31174
25052;Els Boscos;Alosa s/n;41.13835;1.2919633333
25063;Europa;Bloc Europa;41.13811;1.2528633333
25450;Lamote de Grignon;Lamote de Grignon, parc;41.13779;1.301035
25721;Jaume Pahissa, 13;Jaume Pahissa, 18-20;41.13754;1.299052
25120;Monnars Residencial;Av. Boscos, 10;41.13737;1.2963816667
25182;St. Jordi;Bloc St. Jordi;41.13672;1.2535816667
25059;Esquirol;Passeig de l' Esquirol, front diposits EMATSAdirecc. Ferran;41.13547;1.353741667
25449;Oscar Esplà;Oscar Esplà, 29;41.13522;1.3013366667
25537;Educacional N-240;Ctra. N-240, accés A7;41.13083;1.239848333
25044;Educacional N-240;Ctra. N-240, cruïlla accés Z. Educacional;41.13043;1.240443333
25581;Muntanyeta de l'Oliva;Ctra. Santes Creus, Cruïlla muntanyeta de St. Pere;41.13039;1.253443333
25087;La Mora;Av. Mediterrani, front Pl. Comarques Catalanes;41.13009;1.34547
25127;Muntanyeta de l'Oliva;Ctra. Santes Creus, 7;41.12983;1.2539016667
25502;Conca de Barbera;Conca de Barberà, 49-67;41.12952;1.349121667
25716;Ctra. Tennis, 12;Ctra. Tennis, 12;41.12683;1.291895
25522;Buenos Aires;Carrer vint-i-tres;41.12376;1.190926667
25610;Polisportiu;Riu Siurana, bloc 4;41.12261;1.208048333
25122;Montoliu;Av. Marques de Montoliu, 16;41.12242;1.2480033333
25001;Escola els Àngels;Carrer Riu Segre, 10, 43006 Tarragona;41.12198;1.211296667
25162;Campus Catalunya;Av. Catalunya, front 34;41.12197;1.250175
25649;Tuset;Via Augusta, acces Vall de l'Arrabassada;41.12043;1.27242
25604;Pl. Imperial Tàrraco;Pl. Imperial Tàrraco, final Marques de Montoliu;41.11944;1.2457
25603;Pl. Imperial Tàrraco;Prat de la Riba, 37;41.11802;1.245886
25131;Nou Vial;Riu Llobregat, 17;41.11708;1.20077
25171;St. Francesc;Rambla Vella, 20;41.11686;1.254107
25024;Carrer Dos;Carrer dos, 14-16;41.11642;1.19258
25558;Icomar;Ctra. N-340, camp de fíºtbol Icomar;41.11576;1.225138333
25559;Icomar;Ctra. N-340 front barri Icomar;41.11569;1.225588333
25877;Ctra. Valencia, 214;Ctra. Valencia, 214;41.11533;1.20989
25538;Eix Transversal;Polígon Francolí, parcela 20;41.11362;1.223823333
25579;Moll de Costa;Passeig del Gremi de Marejants;41.10959;1.246868333
25626;Sant Antoni;St. Antoni, front portal de St. Antoni;41.1188;1.261401667
25461;Passeig de les Palmeres;Rambla Vella, amb Passeig de les Palmeres;41.1156;1.257505
25550;Estació;Pl. de la Pedrera;41.1115;1.252892
25118;Moll de Costa;Passeig del Gremi de Marejants;41.1098;1.2459483333
